[
  {
    "id": "1",
    "title": "Downtown Food Festival",
    "startTime": "2024-03-21T10:00:00",
    "endTime": "2024-03-21T16:00:00",
    "location": "4908 23 Ave NW, Calgary, Alberta T3B 0Z7, Canada",
    "coordinates": {
      "latitude": 51.0787,
      "longitude": -114.159
    },
    "trucks": [
      "Truck 1",
      "Truck 2"
    ],
    "assignedStaff": [],
    "requiredServers": 4,
    "status": "Scheduled"
  },
  {
    "id": "2",
    "title": "Weekend Market",
    "startTime": "2024-03-23T11:00:00",
    "endTime": "2024-03-23T15:00:00",
    "location": "698 Eau Claire Avenue SW, Calgary, Alberta T2P 5N4, Canada",
    "coordinates": {
      "latitude": 51.0512,
      "longitude": -114.0723
    },
    "trucks": [
      "Truck 3"
    ],
    "assignedStaff": [],
    "requiredServers": 2,
    "status": "Scheduled"
  },
  {
    "id": "3",
    "title": "Corporate Event",
    "startTime": "2024-03-25T12:00:00",
    "endTime": "2024-03-25T14:00:00",
    "location": "120 9th Avenue SE, Calgary, Alberta T2G 0P3, Canada",
    "coordinates": {
      "latitude": 51.0482,
      "longitude": -114.0671
    },
    "trucks": [
      "Truck 1",
      "Truck 4"
    ],
    "assignedStaff": [],
    "requiredServers": 3,
    "status": "Scheduled"
  },
  {
    "id": "4",
    "title": "Spring Festival",
    "startTime": "2024-04-15T10:00:00",
    "endTime": "2024-04-15T16:00:00",
    "location": "228 8th Avenue SE, Calgary, Alberta T2P 2K5, Canada",
    "coordinates": {
      "latitude": 51.0478,
      "longitude": -114.0675
    },
    "trucks": [
      "Truck 2",
      "Truck 3"
    ],
    "assignedStaff": [],
    "requiredServers": 5,
    "status": "Scheduled"
  },
  {
    "id": "5",
    "title": "Community Event",
    "startTime": "2024-04-20T11:00:00",
    "endTime": "2024-04-20T15:00:00",
    "location": "200 Barclay Parade SW, Calgary, Alberta T2P 4R5, Canada",
    "coordinates": {
      "latitude": 51.0516,
      "longitude": -114.0719
    },
    "trucks": [
      "Truck 1",
      "Truck 4"
    ],
    "assignedStaff": [],
    "requiredServers": 3,
    "status": "Scheduled"
  },
  {
    "id": "6",
    "title": "Summer Kickoff",
    "startTime": "2024-05-01T10:00:00",
    "endTime": "2024-05-01T16:00:00",
    "location": "200 8th Avenue SW, Calgary, Alberta T2P 1B5, Canada",
    "coordinates": {
      "latitude": 51.0474,
      "longitude": -114.0679
    },
    "trucks": [
      "Truck 1",
      "Truck 2",
      "Truck 3"
    ],
    "assignedStaff": [],
    "requiredServers": 6,
    "status": "Scheduled"
  },
  {
    "id": "7",
    "title": "Corporate Lunch",
    "startTime": "2024-05-15T11:00:00",
    "endTime": "2024-05-15T14:00:00",
    "location": "120 9th Avenue SE, Calgary, Alberta T2G 0P3, Canada",
    "coordinates": {
      "latitude": 51.0482,
      "longitude": -114.0671
    },
    "trucks": [
      "Truck 1",
      "Truck 4"
    ],
    "assignedStaff": [],
    "requiredServers": 4,
    "status": "Scheduled"
  },
  {
    "id": "8",
    "title": "Summer Festival",
    "startTime": "2024-06-15T10:00:00",
    "endTime": "2024-06-15T16:00:00",
    "location": "698 Eau Claire Avenue SW, Calgary, Alberta T2P 5N4, Canada",
    "coordinates": {
      "latitude": 51.0512,
      "longitude": -114.0723
    },
    "trucks": [
      "Truck 2",
      "Truck 3"
    ],
    "assignedStaff": [],
    "requiredServers": 5,
    "status": "Scheduled"
  },
  {
    "id": "9",
    "title": "Canada Day Celebration",
    "startTime": "2024-07-01T10:00:00",
    "endTime": "2024-07-01T22:00:00",
    "location": "228 8th Avenue SE, Calgary, Alberta T2P 2K5, Canada",
    "coordinates": {
      "latitude": 51.0478,
      "longitude": -114.0675
    },
    "trucks": [
      "Truck 1",
      "Truck 2",
      "Truck 3",
      "Truck 4"
    ],
    "assignedStaff": [],
    "requiredServers": 8,
    "status": "Scheduled"
  },
  {
    "id": "10",
    "title": "Summer Market",
    "startTime": "2024-07-20T11:00:00",
    "endTime": "2024-07-20T15:00:00",
    "location": "200 Barclay Parade SW, Calgary, Alberta T2P 4R5, Canada",
    "coordinates": {
      "latitude": 51.0516,
      "longitude": -114.0719
    },
    "trucks": [
      "Truck 1",
      "Truck 3"
    ],
    "assignedStaff": [],
    "requiredServers": 3,
    "status": "Scheduled"
  },
  {
    "id": "11",
    "title": "Corporate Event",
    "startTime": "2024-08-01T12:00:00",
    "endTime": "2024-08-01T14:00:00",
    "location": "120 9th Avenue SE, Calgary, Alberta T2G 0P3, Canada",
    "coordinates": {
      "latitude": 51.0482,
      "longitude": -114.0671
    },
    "trucks": [
      "Truck 2",
      "Truck 4"
    ],
    "assignedStaff": [],
    "requiredServers": 4,
    "status": "Scheduled"
  },
  {
    "id": "12",
    "title": "Summer Festival Finale",
    "startTime": "2024-08-31T10:00:00",
    "endTime": "2024-08-31T16:00:00",
    "location": "200 8th Avenue SW, Calgary, Alberta T2P 1B5, Canada",
    "coordinates": {
      "latitude": 51.0474,
      "longitude": -114.0679
    },
    "trucks": [
      "Truck 1",
      "Truck 2",
      "Truck 3",
      "Truck 4"
    ],
    "assignedStaff": [],
    "requiredServers": 8,
    "status": "Scheduled"
  },
  {
    "id": "13",
    "title": "test algo ",
    "startTime": "2025-06-11T20:00",
    "endTime": "2025-06-11T20:00",
    "location": "4908 23 Avenue Northwest, Calgary, T3B0Z7",
    "trucks": [
      2,
      3
    ],
    "assignedStaff": [
      "11",
      "3"
    ],
    "requiredServers": 2,
    "status": "Scheduled",
    "contactName": "Rachel Leona Motyer",
    "contactEmail": "leona.motyer@edu.sait.ca",
    "contactPhone": "2502581143"
  },
  {
    "id": "14",
    "title": "Rachel Leona Motyer",
    "startTime": "2025-06-11T20:15",
    "endTime": "2025-06-11T20:15",
    "location": "4908 23 Street NW, Calgary, T3B 0Z7",
    "coordinates": {
      "latitude": 51.0836357,
      "longitude": -114.1144677
    },
    "trucks": [
      "5"
    ],
    "assignedStaff": [
      "4",
      "5",
      "10",
      "9",
      "7",
      "6"
    ],
    "requiredServers": 6,
    "status": "Scheduled",
    "contactName": "Rachel Leona Motyer",
    "contactEmail": "leona.motyer@edu.sait.ca",
    "contactPhone": "2502581143"
  },
  {
    "id": "15",
    "title": "Rachel Leona Motyer",
    "startTime": "2025-06-12T10:15",
    "endTime": "2025-06-12T10:15",
    "location": "4908 23 Avenue NW, Calgary, T3B 0Z7",
    "coordinates": {
      "latitude": 51.079724,
      "longitude": -114.160812
    },
    "trucks": [
      "11"
    ],
    "assignedStaff": [
      "4",
      "5",
      "7",
      "9",
      "6",
      "8"
    ],
    "requiredServers": 6,
    "status": "Scheduled",
    "contactName": "test algo",
    "contactEmail": "leona.motyer@edu.sait.ca",
    "contactPhone": "2502581143"
  },
  {
    "id": "16",
    "title": "demo",
    "startTime": "2025-06-11T11:00",
    "endTime": "2025-06-11T12:00",
    "location": "4908 23 Avenue NW, Calgary, ",
    "coordinates": {
      "latitude": 51.0758004,
      "longitude": -114.1555514
    },
    "trucks": [
      "3"
    ],
    "assignedStaff": [
      "4",
      "5",
      "7",
      "9",
      "6"
    ],
    "requiredServers": 5,
    "status": "Scheduled",
    "contactName": "Rachel Leona Motyer",
    "contactEmail": "rlmotyer@gmail.com",
    "contactPhone": "2502581143"
  }
]